[
  {
    "Name": "Gaisano Capital South",
    "Address": "Henry Gaisano Building, Colon Street Corner Leon Kilat Street, Cebu City, 6000 Cebu",
    "contact": "(032) 260 7888",
    "Website": "http://www.gaisanocapital.com/",
    "Latitude": 10.2960341,
    "Longitude": 123.8966153
  },
  {
    "Name": "Gaisano Mall Mactan Island",
    "Address": "gaisano mactan club mon lapulapu mactan, 6000 Cebu",
    "contact": "0915 378 3680",
    "Website": "",
    "Latitude": 10.316705599999999,
    "Longitude": 123.96305790000001
  },
  {
    "Name": "Gaisano Grand Mall Mandaue Centro",
    "Address": "A. Del Rosario St, Mandaue City, 6014 Cebu",
    "contact": "(032) 520 6040",
    "Website": "http://gaisanograndmalls.com/",
    "Latitude": 10.3302623,
    "Longitude": 123.93946069999998
  },
  {
    "Name": "Gaisano Country Mall",
    "Address": "Banilad Rd, Apas, Cebu City, 6000 Cebu",
    "contact": "(032) 231 1481",
    "Website": "https://gaisanocountrymall.business.site/",
    "Latitude": 10.3394896,
    "Longitude": 123.91098449999998
  },
  {
    "Name": "Gaisano Interpace Computer Systems",
    "Address": "APM Shopping Mall, 6000 A. Soriano Ave, Cebu City, 6000 Cebu",
    "contact": "(032) 505 9529",
    "Website": "http://www.gaisano-interpace.com/",
    "Latitude": 10.313335,
    "Longitude": 123.91691299999998
  },
  {
    "Name": "Gaisano Grand Mall Liloan",
    "Address": "Central Nautical Hwy, Liloan, Cebu",
    "contact": "",
    "Website": "",
    "Latitude": 10.4006963,
    "Longitude": 123.9996661
  },
  {
    "Name": "Gaisano Grand Mandaue North",
    "Address": "Mandaue, Lalawigan ng Cebu",
    "contact": "",
    "Website": "https://gaisanograndmalls.com/gaisano-grand-malls-gaisano-grand-mall-mandaue-north/",
    "Latitude": 10.3567106,
    "Longitude": 123.95019829999998
  },
  {
    "Name": "Gaisano Grand Mall Cordova",
    "Address": "King Dagame Brgy, Bang-Bang, Cordova, 6017 Cebu",
    "contact": "(032) 260 2754",
    "Website": "http://gaisanograndmalls.com/",
    "Latitude": 10.257726,
    "Longitude": 123.9484865
  },
  {
    "Name": "Gaisano Capital Corporate Offices",
    "Address": "General Maxilom Ave Ext, Cebu City, 6000 Cebu",
    "contact": "(032) 254 8888",
    "Website": "http://www.gaisanocapital.com/",
    "Latitude": 10.3066789,
    "Longitude": 123.910753
  },
  {
    "Name": "Gaisano Grand Mall",
    "Address": "A. Del Rosario St, Mandaue City, 6014 Cebu",
    "contact": "",
    "Website": "",
    "Latitude": 10.328787199999999,
    "Longitude": 123.9424461
  },
  {
    "Name": "Gaisano Main",
    "Address": "Vicente Gullas St, Cebu City, Cebu",
    "contact": "(032) 254 6391",
    "Website": "https://www.facebook.com/GaisanoMainInc/",
    "Latitude": 10.2976791,
    "Longitude": 123.9017775
  },
  {
    "Name": "Gaisano Grand Mall Minglanilla",
    "Address": "Cebu S Rd, Minglanilla, 6046 Cebu",
    "contact": "(032) 273 8866",
    "Website": "http://gaisanograndmalls.com/",
    "Latitude": 10.244104499999999,
    "Longitude": 123.7928302
  },
  {
    "Name": "Watsons Gaisano Grand Mall Mandaue",
    "Address": "A. Del Rosario St Cebu, Mandaue City, 6014 Cebu",
    "contact": "0917 843 1286",
    "Website": "http://www.watsons.com.ph/",
    "Latitude": 10.328564499999999,
    "Longitude": 123.94228960000001
  },
  {
    "Name": "Gaisano Barato Corner",
    "Address": "L2 , Gaisano Country Mall, Governor M.Cuenco Avenue , 6000 Cebu City , Cebu, 6000",
    "contact": "(02) 3224 4110",
    "Website": "",
    "Latitude": 10.339748,
    "Longitude": 123.9106927
  },
  {
    "Name": "Gaisano Grand Mall Talamban",
    "Address": "Gov. M. Cuenco Ave, Cebu City, Cebu",
    "contact": "",
    "Website": "",
    "Latitude": 10.349291899999999,
    "Longitude": 123.91331840000001
  },
  {
    "Name": "Gaisano Island Mall Mactan Underground Parking",
    "Address": "Gaisano Annex Building, M.L. Quezon National Highway, Lapu-Lapu City, Cebu",
    "contact": "",
    "Website": "",
    "Latitude": 10.3175712,
    "Longitude": 123.9631136
  },
  {
    "Name": "Metro Gaisano",
    "Address": "Lungsod ng Cebu, Lalawigan ng Cebu",
    "contact": "(032) 236 8390",
    "Website": "http://www.metroretail.com.ph/",
    "Latitude": 10.296964899999999,
    "Longitude": 123.90160290000001
  },
  {
    "Name": "Gaisano Metro Colon",
    "Address": "Gaisano Metro, Colon corner Juan Luna Sts., Cebu City",
    "contact": "(032) 416 8999",
    "Website": "http://www.metro.com.ph/",
    "Latitude": 10.295719499999999,
    "Longitude": 123.89837980000001
  },
  {
    "Name": "Gaisano Bakeshop",
    "Address": "Gaisano Country Mall, Gov. M. Cuenco Ave, Apas, Cebu City, 6000 Cebu",
    "contact": "(032) 231 1481",
    "Website": "",
    "Latitude": 10.339805,
    "Longitude": 123.910868
  },
  {
    "Name": "Gaisano Grand Fiestamall Tabunok",
    "Address": "Cebu S Rd, Talisay, 6045 Cebu",
    "contact": "(032) 273 0588",
    "Website": "http://gaisanograndmalls.com/",
    "Latitude": 10.2655315,
    "Longitude": 123.84233069999999
  },
  {
    "Name": "Gaisano Grand Mall Mandaue North",
    "Address": "Mandaue, 6014 Lalawigan ng Cebu",
    "contact": "(032) 273 0588",
    "Website": "http://gaisanograndmalls.com/",
    "Latitude": 10.359932899999999,
    "Longitude": 123.9485215
  },
  {
    "Name": "Gaisano Mart",
    "Address": "Gaisano Capital Bldg, Gen. Maxilom Ave Ext North Reclamation Area, Carret, Cebu City, 6000 Cebu",
    "contact": "(032) 254 8888",
    "Website": "http://www.gaisanocapital.com/",
    "Latitude": 10.306645,
    "Longitude": 123.91075099999999
  },
  {
    "Name": "Gaisano Mart",
    "Address": "HVG I.T Park Building, Lopez Jaena St, Mandaue City, 6014 Cebu",
    "contact": "(032) 414 1648",
    "Website": "http://www.gaisanomart.com/",
    "Latitude": 10.318770299999999,
    "Longitude": 123.91978519999999
  },
  {
    "Name": "Gaisano Grand Mall of Toledo",
    "Address": "Antonio Y De Pio National Hwy, Toledo City, Cebu",
    "contact": "0910 783 8047",
    "Website": "",
    "Latitude": 10.3900451,
    "Longitude": 123.6507255
  },
  {
    "Name": "Gaisano Grand Mall Balamban",
    "Address": "Antonio Y De Pio National Hwy, Balamban, Cebu",
    "contact": "0930 671 1356",
    "Website": "",
    "Latitude": 10.4928862,
    "Longitude": 123.71368500000001
  },
  {
    "Name": "Gaisano Grand Mall Jai Alai",
    "Address": "Jai Alai, Candido Padilla St, Cebu City, 6000 Cebu",
    "contact": "(032) 262 0624",
    "Website": "http://gaisanograndmalls.com/",
    "Latitude": 10.314288,
    "Longitude": 123.8357098
  },
  {
    "Name": "Gaisano Grand Mall Jai Alai",
    "Address": "Jai Alai, Candido Padilla St, Cebu City, 6000 Cebu",
    "contact": "(032) 262 0624",
    "Website": "http://gaisanograndmalls.com/",
    "Latitude": 10.5192096,
    "Longitude": 123.837453
  },
  {
    "Name": "Gaisano Saver'sMart T. Padilla",
    "Address": "Tiburcio Padilla St, Cebu City, Cebu",
    "contact": "",
    "Website": "https://www.gaisanocapital.com/branch/gaisano-saversmart-t-padilla/",
    "Latitude": 10.3020944,
    "Longitude": 123.9035416
  },
  {
    "Name": "Gaisano Grand Mall Liloan",
    "Address": "National Highway, Liloan, 6002 Cebu",
    "contact": "(032) 236 7466",
    "Website": "http://gaisanograndmalls.com/",
    "Latitude": 10.399065199999999,
    "Longitude": 123.9945086
  },
  {
    "Name": "Gaisano Main",
    "Address": "Lungsod ng Cebu, Lalawigan ng Cebu",
    "contact": "",
    "Website": "",
    "Latitude": 10.297543,
    "Longitude": 123.90066600000002
  },
  {
    "Name": "Gaisano, City Soho Mall",
    "Address": "Lungsod ng Cebu, Lalawigan ng Cebu",
    "contact": "",
    "Website": "",
    "Latitude": 10.3069413,
    "Longitude": 123.88969680000001
  },
  {
    "Name": "Gaisano Superbookstore",
    "Address": "Colon St, Cebu City, Cebu",
    "contact": "(032) 254 3295",
    "Website": "",
    "Latitude": 10.296646599999999,
    "Longitude": 123.8988929
  },
  {
    "Name": "Gaisano Savers Mart Bacayan",
    "Address": "Unnamed Rd,, Lungsod ng Cebu, 6000 Lalawigan ng Cebu",
    "contact": "(032) 348 0697",
    "Website": "https://www.gaisanocapital.com/branch/gaisano-saversmart-bacayan/",
    "Latitude": 10.3837405,
    "Longitude": 123.92119430000001
  },
  {
    "Name": "GAISANO CAPITAL SRP",
    "Address": "Cebu South Coastal Rd, Talisay, Cebu",
    "contact": "",
    "Website": "",
    "Latitude": 10.2573607,
    "Longitude": 123.8595126
  },
  {
    "Name": "Gaisano Mart",
    "Address": "Juan Luna Cor. MJ Cuenco Ave., Cebu City, 6000 Cebu",
    "contact": "(032) 401 2757",
    "Website": "http://gaisanomart.com/",
    "Latitude": 10.314102,
    "Longitude": 123.91502899999999
  },
  {
    "Name": "Gaisano Saver's Mart",
    "Address": "Kagodoy, Basak-Marigondon Rd, Lapu-Lapu, 6015 Lalawigan ng Cebu",
    "contact": "",
    "Website": "https://www.gaisanocapital.com/branch/gaisano-savers-mart/",
    "Latitude": 10.2900919,
    "Longitude": 123.9678557
  },
  {
    "Name": "Gaisano SaversMart",
    "Address": "F. Jaca St, Cebu City, Cebu",
    "contact": "",
    "Website": "https://www.gaisanocapital.com/branch/131/",
    "Latitude": 10.271125099999999,
    "Longitude": 123.85650919999999
  },
  {
    "Name": "GAISANO GRAND PASEO GRANDE",
    "Address": "Lapu-Lapu, Lalawigan ng Cebu",
    "contact": "",
    "Website": "",
    "Latitude": 10.2999807,
    "Longitude": 123.96254409999997
  },
  {
    "Name": "Watsons Gaisano Grand Mall Mandaue",
    "Address": "A. Del Rosario St, Mandaue City, 6014 Cebu",
    "contact": "0917 843 1286",
    "Website": "http://www.watsons.com.ph/",
    "Latitude": 10.3284769,
    "Longitude": 123.94230259999998
  },
  {
    "Name": "Metro Supermarket",
    "Address": "A. S. Fortuna St, Mandaue City, Cebu",
    "contact": "",
    "Website": "",
    "Latitude": 10.3398357,
    "Longitude": 123.9244294
  },
  {
    "Name": "Gaisano Grand Mall Carcar",
    "Address": "3 Cebu S Rd, Carcar City, 6019 Cebu",
    "contact": "(032) 487 8888",
    "Website": "http://gaisanograndmalls.com/",
    "Latitude": 10.109198899999999,
    "Longitude": 123.6454825
  },
  {
    "Name": "Gaisano Brothers Merchandising Incorporated",
    "Address": "50 Colon St, Cebu City, Cebu",
    "contact": "(032) 232 5028",
    "Website": "",
    "Latitude": 10.297726599999999,
    "Longitude": 123.9020249
  },
  {
    "Name": "Gaisano Town Centre",
    "Address": "Gaisano Town Centre Prenzza, Barangay Cambuhawe, Balamban, 6041 Cebu",
    "contact": "(032) 254 6396",
    "Website": "",
    "Latitude": 10.503762,
    "Longitude": 123.7214489
  },
  {
    "Name": "GAISANO INAYAWAN",
    "Address": "94 F. Jaca St, Cebu City, 6000 Cebu",
    "contact": "",
    "Website": "https://www.gaisanocapital.com/branch/131/",
    "Latitude": 10.2763582,
    "Longitude": 123.8574049
  },
  {
    "Name": "Gaisano Country Mall",
    "Address": "Lungsod ng Cebu, Lalawigan ng Cebu",
    "contact": "",
    "Website": "",
    "Latitude": 10.3392655,
    "Longitude": 123.91166919999998
  },
  {
    "Name": "Metro Gaisano Carmen",
    "Address": "Carmen, Lalawigan ng Cebu",
    "contact": "",
    "Website": "https://www.facebook.com/gaisanogrand/",
    "Latitude": 10.5919683,
    "Longitude": 124.0179031
  },
  {
    "Name": "Gaisano Cineplex",
    "Address": "Gaisano Country Mall, Gov. M. Cuenco Ave, Apas, Cebu City, 6000 Cebu",
    "contact": "(032) 231 1481",
    "Website": "",
    "Latitude": 10.340028,
    "Longitude": 123.910557
  },
  {
    "Name": "Gaisano House Of Fabrics",
    "Address": "Gaisano Country Mall, Gov. M. Cuenco Ave, Apas, Cebu City, 6000 Cebu",
    "contact": "",
    "Website": "https://plus.sandbox.google.com/113799912855120698188/about",
    "Latitude": 10.339352,
    "Longitude": 123.91093099999999
  },
  {
    "Name": "Gaisano Grand Mall Dumanjug",
    "Address": "Dumanjug, Lalawigan ng Cebu",
    "contact": "",
    "Website": "",
    "Latitude": 10.057732099999999,
    "Longitude": 123.43590800000001
  },
  {
    "Name": "Gaisano Grand Mall Moalboal",
    "Address": "National Hwy, Moalboal, 6032 Cebu",
    "contact": "(032) 474 8036",
    "Website": "http://gaisanograndmalls.com/",
    "Latitude": 9.943516899999999,
    "Longitude": 123.39644559999998
  },
  {
    "Name": "Bank of Philippine Island - Cebu Gaisano County Mall",
    "Address": "Gaisano Country Mall, Parking Area, Banilad, Cebu City, 6000, Cebu",
    "contact": "(032) 234 0020",
    "Website": "",
    "Latitude": 10.339594,
    "Longitude": 123.910624
  }
]